time,x,y,z,vx,vy,vz,yaw_deg,pitch_deg,roll_deg
0.0,0.0,0.0,0.0,0.0,0.0,0.0,0.0,0.0,0.0
0.01,9.732958065695534e-08,5.6193259592406564e-08,0.00018692604795064806,2.0351049542945876e-05,1.1749683931911209e-05,0.05011106407713447,0.0,0.0,0.0
0.02,5.27497454298826e-07,3.0455079723626956e-07,0.0011127028161159323,6.592169725683096e-05,3.8059909656668366e-05,0.1371309393225723,0.0,0.0,0.0
0.03,1.5326084876470683e-06,8.848519229053404e-07,0.002943315584341737,0.00013512987858116035,7.801727177439437e-05,0.229329217291456,0.0,0.0,0.0
0.04,3.3455412040188265e-06,1.9315491147252543e-06,0.005700053616681012,0.00022741997514444102,0.00013130098386874097,0.32204509829361777,0.0,0.0,0.0
0.05,6.196008360906107e-06,3.5772670950703124e-06,0.009383702563646658,0.0003426112890759992,0.00019780671997543276,0.41465720905257386,0.0,0.0,0.0
0.060000000000000005,1.0312431380857168e-05,5.953885033737429e-06,0.01399246682611341,0.0004805954485068293,0.0002774719115667268,0.5070588422423391,0.0,0.0,0.0
0.07,1.5922270486794212e-05,9.192727151660671e-06,0.019524112767265955,0.0006412810096570264,0.00037024376355167916,0.5992320106456624,0.0,0.0,0.0
0.08,2.326584313576078e-05,1.3445547463919493e-05,0.025973210937923014,0.0008314018135916041,0.00048616573078620975,0.6903540763185014,-0.004416927687193389,0.007974415492116702,-0.011413686512116557
0.09,3.289646400194314e-05,1.931792372472225e-05,0.033311259140232294,0.0011172213865191538,0.0007196391920064108,0.7760922589560919,-0.019984695180609555,0.052200964641998915,-0.07181052692501252
0.09999999999999999,4.643376922015564e-05,2.8856092239934643e-05,0.04146634177738926,0.001638227155330851,0.0012508040140746324,0.8535103457944254,-0.03459476982744236,0.15121632518480352,-0.20037176849918606
0.10999999999999999,6.690838549140542e-05,4.586433641478484e-05,0.05035303477736003,0.0025197067091839607,0.0022313025231329455,0.9224315057606782,-0.043612722314176865,0.2920414073694405,-0.3793275506999426
0.11999999999999998,9.825724063582407e-05,7.522098804959631e-05,0.05988886123544842,0.003816911446506382,0.0037244454375508,0.983485646656993,-0.04793911325014674,0.4533919471175608,-0.5823539070174558
0.12999999999999998,0.0001446459291215293,0.00012204466108415611,0.06999814103090554,0.005523643232005573,0.005719287784690487,1.0372533755214832,-0.04970822169812379,0.6187698004545229,-0.7895370817905345
0.13999999999999999,0.00020999106342742626,0.00019112303365750454,0.08061112356039538,0.007600126340028211,0.008165239554638867,1.0843117524411316,-0.05067937437961203,0.7783477793493192,-0.9892085448753909
0.15,0.0002977376554465047,0.0002866532622404034,0.09166368405092835,0.009994581494352303,0.010998086238940637,1.12522202157515,-0.05188955230562566,0.9275998909009624,-1.1761132639258793
0.16,0.0004108127848714199,0.00041219356597999056,0.10309735542911745,0.012653188653832408,0.014151706362900383,1.1603966724957235,-0.053768112698089954,1.0652277491150224,-1.3488423804714855
0.17,0.000551624760052668,0.0005706665392795927,0.11485728432722007,0.015534154365931044,0.017575060727511485,1.19053504294883,-0.05637596953445599,1.1914566402521447,-1.5077711438265782
0.18000000000000002,0.000722179516160734,0.0007645041483907336,0.12689455900772265,0.018599087095730125,0.02122139891545652,1.2160882791526817,-0.059583956238677446,1.307009126062561,-1.6538246519509703
0.19000000000000003,0.0009241482664226223,0.0009957311721326264,0.13916539823367785,0.02180911752818381,0.025043334736555827,1.2372125735881512,-0.06321438943702708,1.4125829177677942,-1.7878703137956418
0.20000000000000004,0.0011588489803499513,0.0012659420319656154,0.15162778869298627,0.025141026537979307,0.029012718763116264,1.254458880871176,-0.0670851781591369,1.5087602195930014,-1.9106213714142355
0.21000000000000005,0.0014273742954653513,0.001576457978073423,0.16424445367404203,0.02857056717676075,0.03310010816228149,1.2681352131960355,-0.07103813375012646,1.5959283479654076,-2.0225450842865516
0.22000000000000006,0.0017305959172365033,0.001928332121297083,0.1769812456861581,0.03207741310387394,0.037280843704444545,1.2785491980984787,-0.07493925828459273,1.6743503723893576,-2.1239537221442535
0.23000000000000007,0.002069196968905186,0.0023223888790237187,0.1898070068878284,0.03564401107036091,0.04153364611349872,1.285989345590449,-0.07867655575753589,1.7442092229288335,-2.2150599444194423
0.24000000000000007,0.002443696305024143,0.0027592535953964875,0.20269335700471605,0.039254966396092494,0.04583986468664131,1.2907225998976755,-0.08215642563997634,1.8056433552265094,-2.296020839297987
0.25000000000000006,0.0028544679121045714,0.0032393761547719977,0.21561448023334992,0.04289663436794289,0.050182977574797547,1.292995189825434,-0.08530068762617622,1.858772076942137,-2.366969019323666
0.26000000000000006,0.003301756817201197,0.0037630503231665634,0.2285469250240425,0.04655681773698261,0.05454822155786415,1.2930340640984934,-0.08804468337636664,1.9037123471395634,-2.42803328490257
0.2700000000000001,0.0037856923332250146,0.004330429829065819,0.24146941862803267,0.05022453140880995,0.0589223038498807,1.2910483497217295,-0.09033625465964738,1.9405896634453008,-2.479352138970841
0.2800000000000001,0.0043062992047104304,0.004941541872241338,0.2543626958444248,0.0538898151776255,0.06329317265206921,1.2872307227401754,-0.09213523836213053,1.9695451795936478,-2.5210827659306023
0.2900000000000001,0.0048635070738206575,0.005596298574391317,0.2672093409601354,0.05754358340446305,0.06764983297619342,1.2817586753016974,-0.09341316454968568,1.990740441676054,-2.5534071357841377
0.3000000000000001,0.005457158597222504,0.00629450677713089,0.2799936418527225,0.06117750437552716,0.07198219890558363,1.2747956824259599,-0.09415294597765701,2.004360511824447,-2.5765361361767067
0.3100000000000001,0.0060870164828699174,0.0070358765178651795,0.29270145528691904,0.064783904052861,0.07628097584452105,1.2664922755756585,-0.09434844222299064,2.0106158583229723,-2.590712168300959
0.3200000000000001,0.006752769668851418,0.007820028456806967,0.30532008251022547,0.06835569001909247,0.080537567619452,1.2569870304847446,-0.09400385007871814,2.0097431934284242,-2.5962104120060014
0.3300000000000001,0.007454038828091132,0.008646500481405675,0.3178381543261425,0.07188629209075395,0.08474400410885612,1.2464074763596804,-0.09313291483187819,2.00200536494837,-2.5933388825416834
0.34000000000000014,0.008190381349980234,0.009514753674311831,0.33024552489246983,0.07536961655982484,0.08889288566867354,1.2348709330930216,-0.09175798141478082,1.9876903954714678,-2.5824373928556748
0.35000000000000014,0.008961295921673402,0.010424177796188502,0.3425331735560198,0.07880001142386844,0.09297734111004134,1.222485282633639,-0.08990891699368564,1.9671097752396884,-2.5638755541812976
0.36000000000000015,0.009766226807207167,0.011374096404476815,0.35469311409409654,0.08217224032168426,0.096990996423011,1.209349680171681,-0.08762194220256372,1.9405961301495709,-2.5380499689544203
0.37000000000000016,0.010604567901419556,0.012363771703186359,0.3667183107873059,0.08548146321619707,0.10092795183811346,1.1955552103265943,-0.08493840984418556,1.9085003964029108,-2.505380783575164
0.38000000000000017,0.011475666617572374,0.013392409196543987,0.37860260079787894,0.08872322216172827,0.1047827651796184,1.181185493076902,-0.08190356900120621,1.8711886356572542,-2.4663077718187876
0.3900000000000002,0.012378827652306527,0.014459162200535228,0.39034062237292233,0.09189343075896338,0.10855043979018142,1.1663172437437812,-0.07856534990286904,1.829038619928738,-2.4212861139855715
0.4000000000000002,0.013313316658806567,0.015563136250653064,0.40192774843309986,0.0949883661383809,0.11222641559703574,1.1510207909391132,-0.07497320102152923,1.7824363057353303,-2.3707820244713838
0.4100000000000002,0.014278363848532618,0.0167033934311839,0.41336002514445874,0.09800466252303924,0.11580656214680546,1.1353605560144249,-0.07117700506798347,1.7317723038356638,-2.3152683636532787
0.4200000000000002,0.015273167533332261,0.01787895664078734,0.4246341151047216,0.1009393056063904,0.11928717266192469,1.1193954972012763,-0.06722609514560728,1.6774384359130468,-2.2552203507437283
0.4300000000000002,0.016296897612929143,0.019088813800668215,0.43574724480565924,0.10378962714235322,0.12266495836927194,1.1031795213168365,-0.06316838664390086,1.6198244538155304,-2.1911114740529647
0.4400000000000002,0.017348699007477524,0.020331922005026943,0.44669715606042953,0.10655329928531991,0.12593704252359036,1.0867618656207212,-0.05904963481978126,1.5593149813258862,-2.123409675007665
0.45000000000000023,0.018427695030871105,0.02160721160846309,0.45748206110930556,0.1092283283389949,0.12910095369693364,1.0701874521501598,-0.05491282270650047,1.4962867234983503,-2.052573863099342
0.46000000000000024,0.01953299069761703,0.022913590241374827,0.46810060113930324,0.11181304767669187,0.13215461803286202,1.053497216629208,-0.05079767922260652,1.4311059747806354,-1.9790508012345032
0.47000000000000025,0.02066367595416469,0.024249946741941628,0.4785518079731233,0.11430610968349475,0.13509635027230477,1.0367284138426118,-0.04674032327617716,1.3641264447184722,-1.9032723850995255
0.48000000000000026,0.02181882882446186,0.02561515499181489,0.4888350687008014,0.116706476643958,0.13792484344863282,1.019914901184259,-0.04277302635485444,1.295687409181283,-1.8256533263506363
0.49000000000000027,0.022997518459059195,0.027008077642003768,0.4989500930437456,0.11901341055913463,0.14063915722417156,1.0030874019318872,-0.038924083582493836,1.2261121858240969,-1.7465892377805021
0.5000000000000002,0.024198808077173683,0.02842756971547952,0.5088968832556454,0.12122646192497809,0.14323870490067606,0.9862737496616518,-0.035217781482404516,1.1557069249093346,-1.6664551090820565
0.5100000000000002,0.025421757791639348,0.029872482073595205,0.5186757063782544,0.12334545754182694,0.14572323918368849,0.9694991150960134,-0.031674449652898784,1.0847597005894822,-1.585604154331597
0.5200000000000002,0.026665427307520334,0.03134166473440623,0.5282870686824436,0.12537048745296828,0.14809283681664615,0.9527862165739228,-0.02831058314685612,1.0135398831898628,-1.5043670066925998
0.5300000000000002,0.027928878486248924,0.03283397003227426,0.5377316921363429,0.1273018911303675,0.15034788222651213,0.9361555152412983,-0.025139022453627344,0.9422977697904346,-1.4230512319061213
0.5400000000000003,0.029211177768403197,0.03434825560964829,0.5470104927529605,0.1291402430386738,0.15248905033989893,0.9196253959802447,-0.022169178504917217,0.8712644483292,-1.3419411296685593
0.5500000000000003,0.030511398449590523,0.03588338723356166,0.5561245606794901,0.13088633771563082,0.1545172887384259,0.9032123350255227,-0.01940729096485347,0.8006518693714835,-1.2612977907812255
0.5600000000000003,0.03182862280529877,0.03743824143109438,0.5650751418996851,0.13254117450903716,0.1564337993255892,0.886931055154757,-0.016856709124322727,0.7306530994440248,-1.1813593777707176
0.5700000000000003,0.033161944061971906,0.039011707939769553,0.5738636214292584,0.13410594210833301,0.1582400196758383,0.8707946692833571,-0.014518185917463674,0.661442730262226,-1.1023415973189818
0.5800000000000003,0.03451046821292364,0.04060269197053472,0.5824915078923176,0.1355820030035738,0.15993760423086045,0.8548148132448603,-0.012390176842936194,0.5931774191366354,-1.024438334119109
0.5900000000000003,0.0358733156789937,0.04221011628258741,0.5909604193744179,0.13697087799674043,0.16152840549918884,0.8390017684913927,-0.01046913684606897,0.5259965371988408,-0.9478224175203785
0.6000000000000003,0.03724962281505407,0.043832923070811276,0.599272070454944,0.1382742308806952,0.1630144554039852,0.8233645754063397,-0.00874980945461701,0.46002290372162935,-0.8726464943990351
0.6100000000000003,0.038638543264572583,0.04547007566797435,0.6074282603282518,0.13949385339019504,0.1643979469109149,0.807911137881466,-0.00722550362664932,0.3953635866243565,-0.799043983967526
0.6200000000000003,0.040039249165427546,0.047120560065091445,0.6154308619293305,0.14063165051771995,0.1656812160540467,0.7926483197731296,-0.00588835484041452,0.3321107511689577,-0.7271300926133946
0.6300000000000003,0.04145093221103527,0.048783386254459875,0.623281811985711,0.14168962627487336,0.16686672446318832,0.7775820338165018,-0.004729567918114895,0.27034254079728864,-0.6570028692586953
0.6400000000000003,0.042872804571599914,0.05045758940083882,0.6309831019229643,0.14266986996810838,0.16795704248144258,0.7627173235425811,-0.0037396399209291696,0.21012397598278834,-0.588744284088202
0.6500000000000004,0.04430409968092375,0.05214223084705856,0.6385367695564138,0.1435745430458009,0.16895483294738892,0.7480584387100773,-0.0029085621797908857,0.15150785882756956,-0.5224213157620479
0.6600000000000004,0.0457440728947296,0.05383639896102013,0.6459448915066486,0.14440586656244264,0.1698628357024328,0.7336089047328284,-0.0022260011382420836,0.0945356728995708,-0.4580870343712499
0.6700000000000004,0.0471920020268515,0.05553920983158513,0.6532095762810778,0.14516610929512333,0.17068385287073376,0.7193715865532289,-0.001681458186342245,0.03923846945216701,-0.3957816693895412
0.6800000000000004,0.048647187769951306,0.05724980782126766,0.6603329579681259,0.145857576537626,0.17142073494687157,0.7053487473831577,-0.0012644090665266017,-0.014362267312836113,-0.33553365370786326
0.6900000000000004,0.05010895400762677,0.058967365983934754,0.6673171904947411,0.1464825995884475,0.17207636771514212,0.6915421027060952,-0.0009644237432755652,-0.06625378189580784,-0.27736063650200915
0.7000000000000004,0.051576648024898065,0.06069108635590871,0.6741644424016928,0.14704352594091694,0.17265366001415122,0.677952869907509,-0.0007712678589402538,-0.1164312407770031,-0.22127045917823898
0.7100000000000004,0.05304964062410461,0.062420200128954675,0.6808768920946754,0.14754271017633339,0.1731555323512206,0.664581813875184,-0.0006749870586815112,-0.1648969609283219,-0.16726208996957398
0.7200000000000004,0.054527326153220736,0.06415396771364075,0.6874567235325313,0.14798250555467227,0.17358490636303386,0.6514292888869855,-0.000665975568556183,-0.2116596761917924,-0.11532651392357493
0.7300000000000004,0.05600912245351578,0.06589167870148609,0.6939061223169629,0.14836525629188937,0.17394469511190638,0.6384952770805873,-0.0007350304621083889,-0.25673384330875054,-0.06544757603960635
0.7400000000000004,0.0574944707333504,0.06763265173417517,0.7002272721509406,0.14869329050814803,0.1742377942010204,0.6257794237779691,-0.0008733930614285817,-0.30013898865238103,-0.01760277619026982
0.7500000000000004,0.0589828353747238,0.06937623428792365,0.706422351635636,0.14896891382735608,0.1744670736868688,0.6132810699169922,-0.0010727788967001503,-0.3418990960933456,0.02823598479087339
0.7600000000000005,0.060473703678973666,0.07112180238084188,0.7124935313781371,0.14919440360517394,0.17463537076293786,0.6009992818230854,-0.0013253976010106675,-0.3820420359041534,0.07210170784339498
0.7700000000000005,0.061966585557788924,0.07286876021086457,0.718442971384438,0.14937200376008225,0.17474548318525784,0.5889328785359986,-0.0016239640509936517,-0.420599034173157,0.11403164670026732
0.7800000000000005,0.06346101317543071,0.07461653973150777,0.7242728187142636,0.1495039201801195,0.17480016340779214,0.5770804568896774,-0.0019617019841186847,-0.45760418184414925,0.1540667062296514
0.7900000000000005,0.06495654054777567,0.07636460017238327,0.7299852053761853,0.1495923166764541,0.1748021133936456,0.5654404145275523,-0.002332341234740673,-0.49309398221342793,0.19225088678846194
0.8000000000000005,0.06645274310350177,0.07811242751105299,0.7355822464432361,0.14963931145398493,0.17475398006668041,0.5540109710208826,-0.0027301096371646783,-0.527106935494296,0.22863077300660717
0.8100000000000005,0.06794921721243595,0.07985953390244702,0.7410660383708404,0.14964697406860963,0.17465835136726324,0.5427901872441854,-0.0031497205480721198,-0.5596831588912431,0.263255065213714
0.8200000000000005,0.06944557968577768,0.08160545707170375,0.7464386575003469,0.14961732284061022,0.1745177528754636,0.5317759831492009,-0.0035863568451621596,-0.5908640405051601,0.2961741515686308
0.8300000000000005,0.07094146725260776,0.08334975967592352,0.7517021587328124,0.14955232269372706,0.1743346449650195,0.5209661540672058,-0.004035652165711453,-0.6206919253100639,0.32743971884813217
0.8400000000000005,0.07243653601678879,0.08509202863996149,0.7568585743589263,0.14945388338988003,0.1741114204517219,0.5103583856587658,-0.004493670059390766,-0.6492098313949204,0.35710439978787806
0.8500000000000005,0.07393046089806626,0.08683187447102508,0.7619099130321043,0.1493238581301058,0.17385040270049343,0.49995026762014655,-0.0049568816451556474,-0.6764611946457273,0.3852214548393962
0.8600000000000005,0.07542293506088887,0.08856893055648815,0.7668581588728302,0.14916404249307402,0.17355384415629807,0.4897393062465269,-0.005422142283051836,-0.7024896400482384,0.41184448620596925
0.8700000000000006,0.07691366933418461,0.09030285244899025,0.7717052706932793,0.14897617368348645,0.17322392526507494,0.4797229359438333,-0.0058866676987890405,-0.7273387778162587,0.4370271820427841
0.8800000000000006,0.07840239162505763,0.09203331714255768,0.7764531813321394,0.14876193006372132,0.17286275375209909,0.46989852977337826,-0.006348009932143673,-0.7510520225905505,0.4608230887481182
0.8900000000000006,0.07988884632910996,0.09376002234316308,0.7811037970903487,0.14852293094323185,0.17247236422650242,0.4602634091064947,-0.006804033419687587,-0.7736724340058223,0.4832854093288654
0.9000000000000006,0.08137279373984349,0.09548268573683502,0.7856589972592138,0.14826073660141817,0.1720547180821056,0.45081485245996106,-0.0072528914678944515,-0.7952425769851609,0.5044668258919807
0.9100000000000006,0.08285400945936074,0.09720104425813775,0.7901206337330433,0.14797684852094495,0.17161170366619138,0.44155010357715985,-0.007693003324143006,-0.8158044001901956,0.5244193443906039
0.9200000000000006,0.08433228381235922,0.09891485336156498,0.7944905306990591,0.14767270980975317,0.17114513668936582,0.4324663788145681,-0.008123032010220847,-0.8353991311292093,0.5431941598372412
0.9300000000000006,0.08580742126520309,0.10062388629813115,0.7987704843979174,0.14734970579130016,0.17065676085118808,0.4235608738882909,-0.008541863045298028,-0.854067186502548,0.560841540284363
0.9400000000000006,0.08727923985165736,0.10232793339919734,0.8029622629486957,0.1470091647438399,0.17014824865778397,0.4148307700308879,-0.008948584152609263,-0.8718480964435964,0.5774107279633582
0.9500000000000006,0.08874757060668458,0.10402680136933952,0.8070676062326816,0.14665235877081922,0.16962120240917664,0.40627323960466766,-0.009342466015862695,-0.8887804413930663,0.5929498560645244
0.9600000000000006,0.09021225700953067,0.10572031258985123,0.8110882258307475,0.1462805047857008,0.16907715533556217,0.39788545121390095,-0.00972294412729161,-0.9049018004233736,0.60750587973244
0.9700000000000006,0.09167315443716599,0.10740830443427224,0.8150258050094962,0.14589476559572728,0.16851757286321337,0.38966457435500407,-0.01008960174887657,-0.9202487099076879,0.6211245199416969
0.9800000000000006,0.09313012962899825,0.10909062859714913,0.8188819987517415,0.1454962510703036,0.1679438539921078,0.38160778364063563,-0.010442153991222319,-0.934856631504146,0.633850219006744
0.9900000000000007,0.09458306016363685,0.11076715043706109,0.8226584338272306,0.1450860193807928,0.16735733276873777,0.37371226263080776,-0.01078043300049973,-0.9487599284992709,0.6457261065659269
1.0000000000000007,0.09603183394836116,0.1124377483347856,0.826356708899834,0.14466507829959235,0.1667592798388664,0.3659752073015151,-0.011104374232418423,-0.9619918496254186,0.6567939749631642
1.0100000000000007,0.09747634872182913,0.1141023130673326,0.8299783946677213,0.14423438654737797,0.16615090406624183,0.3583938291790062,-0.011414003783063054,-0.9745845195348247,0.6670942630307626
1.0200000000000007,0.09891651157045647,0.11576074719844165,0.83352503403331,0.1437948551783708,0.1655333542044685,0.3509653581656435,-0.011709426739302151,-0.9865689351773577,0.6766660473533503
1.0300000000000007,0.10035223845879992,0.11741296448601463,0.8369981423000272,0.14334734899440021,0.16490772061035916,0.3436870450813026,-0.011990816506095717,-0.9979749673902593,0.685547040165641
1.0400000000000007,0.1017834537741898,0.11905888930684456,0.8403992073931499,0.14289268797939766,0.1642750369881532,0.3365561639424297,-0.012258405064140648,-1.0088313670659637,0.693773593105639
1.0500000000000007,0.10321008988577796,0.12069845609890066,0.8437296901022054,0.14243164874676784,0.16363628215498574,0.32957001399919716,-0.012512474108674433,-1.0191657753184424,0.7013807061098921
1.0600000000000007,0.10463208671809518,0.12233160882133777,0.8469910243426093,0.14196496599284286,0.16299238181892964,0.32272592154965135,-0.012753347018715406,-1.029004737119552,0.708402040798535
1.0700000000000007,0.10604939133914809,0.12395830043231634,0.8501846174343984,0.1414933339503338,0.1623442103618094,0.31602124154832945,-0.012981381605368839,-1.038373717924522,0.714869937755174
1.0800000000000007,0.1074619575630276,0.12557849238464505,0.8533118503960871,0.14101740783635378,0.16169259261980282,0.30945335902551374,-0.013196963587916426,-1.0472971228502068,0.7208154371602148
1.0900000000000007,0.10886974556695032,0.12719215413919227,0.8563740782518284,0.14053780529019894,0.16103830565560726,0.3030196903320901,-0.013400500747102988,-1.0557983180110495,0.7262683022861827
1.1000000000000008,0.1102727215226087,0.12879926269595376,0.8593726303502065,0.1400551077966411,0.16038208051665256,0.2967176842238671,-0.013592417706203324,-1.0638996536560623,0.7312570454099936
1.1100000000000008,0.11167085724166595,0.13039980214261235,0.8623088106931212,0.13956986209100866,0.15972460397449448,0.29054482279818933,-0.013773151292008103,-1.0716224887855976,0.7358089557401948
1.1200000000000008,0.1130641298351972,0.13199376322037953,0.8651838982733463,0.13908258154281464,0.15906652024112533,0.2844986222947337,-0.013943146429705382,-1.0789872169594337,0.7399501289970328
1.1300000000000008,0.11445252138684782,0.13358114290686926,0.8679991474194617,0.13859374751513323,0.15840843265849203,0.2785766337715024,-0.014102852527689128,-1.08601329303788,0.7437054983199913
1.1400000000000008,0.11583601863945427,0.13516194401571932,0.870755788146961,0.13810381069733194,0.15775090535802055,0.272776443666221,-0.014252720310520531,-1.092719260625302,0.7470988662113268
1.1500000000000008,0.11721461269485052,0.13673617481264674,0.8734550265144375,0.13761319240913603,0.15709446488741186,0.2670956742526008,-0.014393199060566011,-1.0991227800109398,0.7501529372552933
1.1600000000000008,0.1185882987265647,0.13830384864759765,0.8760980449838431,0.1371222858743404,0.15643960180239905,0.2615319840002324,-0.014524734231170582,-1.1052406564251298,0.7528893513813162
1.1700000000000008,0.11995707570509535,0.13986498360263158,0.8786860027838953,0.13663145746278976,0.15578677222154408,0.2560830678462365,-0.014647765396575599,-1.1110888684503264,0.7553287174655664
1.1800000000000008,0.12132094613544413,0.14141960215516228,0.8812200362757897,0.13614104789952602,0.15513639934250337,0.25074665738620217,-0.014762724506117066,-1.1166825964457057,0.757490647089293
1.1900000000000008,0.12267991580657234,0.14296773085616318,0.8837012593204465,0.13565137344025235,0.15448887491851115,0.24552052099139168,-0.014870034412522912,-1.1220362508617543,0.7593937882940881
1.2000000000000008,0.124033993552441,0.144509400022935,0.8861307636465857,0.13516272701248971,0.15384456069411778,0.2404024638586785,-0.014970107646347243,-1.1271635003372795,0.7610558591941193
1.2100000000000009,0.12538319102428924,0.1460446434460238,0.8885096192189887,0.1346753793220035,0.15320378979947852,0.23539032799920848,-0.015063345410714949,-1.1320772994857653,0.7624936813233951
1.2200000000000009,0.12672752247380223,0.14757349810987289,0.8908388746063632,0.1341895799242596,0.15256686810272269,0.23048199217133386,-0.015150136772601745,-1.1367899162911477,0.7637232126124884
1.2300000000000009,0.1280670045468185,0.14909600392678765,0.8931195573482781,0.1337055582608304,0.1519340755201401,0.2256753717629582,-0.01523085802882278,-1.1413129590448894,0.7647595799039325
1.2400000000000009,0.1294016560872264,0.15061220348379095,0.8953526743206883,0.13322352466081408,0.15130566728410794,0.2209684186280492,-0.015305872226749166,-1.1456574027669222,0.7656171109288672
1.2500000000000009,0.13073149795070058,0.15212214180194705,0.8975392120996134,0.13274367130745707,0.15068187516884568,0.21635912088172113,-0.015375528821515999,-1.1498336150625712,0.7663093656795348
1.260000000000001,0.13205655282793194,0.153625866107733,0.8996801373225752,0.13226617317028033,0.15006290867423153,0.21184550265795976,-0.015440163453117467,-1.153851381376181,0.7668491671230643
1.270000000000001,0.1333768450770081,0.15512342561604006,0.9017763970474415,0.13179118890310693,0.14944895616804105,0.20742562383375482,-0.015500097828312033,-1.1577199296098004,0.7672486312116454
1.280000000000001,0.13469240056460557,0.1566148713243919,0.9038289191083568,0.13131886170847215,0.14884018598708118,0.20309757972312084,-0.015555639693686823,-1.161447954082138,0.7675191961528993
1.290000000000001,0.13600324651566045,0.1581002558179704,0.9058386124684753,0.13084932016896994,0.1482367474977893,0.1988595007442218,-0.01560708288754939,-1.1650436388090644,0.7676716509119729
1.300000000000001,0.13730941137118963,0.15957963308504824,0.9078063675692425,0.13038267904615053,0.147638772116951,0.19470955206256763,-0.015654707459538997,-1.1685146800923083,0.7677161629237703
1.310000000000001,0.13861092465394162,0.1610530583424317,0.9097330566760004,0.1299190400476365,0.14704637429326137,0.1906459332130227,-0.015698779847978468,-1.1718683084077581,0.7676623049998399
1.320000000000001,0.13990781684156273,0.1625205878705269,0.9116195342197162,0.1294584925631671,0.14645965245051518,0.18666687770315163,-0.015739553106026236,-1.175111309588942,0.7675190814198233
1.330000000000001,0.14120011924697126,0.16398227885764952,0.9134666371346613,0.12900111437031656,0.1458786898932615,0.1827706526002309,-0.015777267168641494,-1.1782500453049205,0.7672949532021252
1.340000000000001,0.14248786390564067,0.16543818925320705,0.915275185191886,0.12854697231065942,0.14530355567579964,0.17895555810406955,-0.01581214915324698,-1.1812904728350255,0.7669978625526268
1.350000000000001,0.14377108346949974,0.16688837762939163,0.9170459813283607,0.12809612293717879,0.1447343054354265,0.17521992710761122,-0.015844413687772525,-1.184238164145615,0.7666352564938997
1.360000000000001,0.14504981110716678,0.1683329030510303,0.9187798119716684,0.12764861313372805,0.1441709821908711,0.1715621247471312,-0.01587426326048526,-1.1870983242764268,0.7662141096805316
1.370000000000001,0.1463240804102418,0.1697718249532498,0.9204774473601538,0.12720448070736917,0.14361361710687112,0.1679805479436932,-0.015901888586675805,-1.1898758090461252,0.7657409464089076
1.380000000000001,0.14759392530539023,0.17120520302662176,0.9221396418584498,0.12676375495441553,0.14306223022586045,0.1644736249373944,-0.015927468987861935,-1.192575142088381,0.7652218618321162
1.390000000000001,0.14885937997195883,0.1726330971094645,0.9237671342683154,0.12632645720101102,0.14251683116774364,0.16103981481579943,-0.015951172779718803,-1.1952005312312597,0.7646625423926496
1.400000000000001,0.15012047876487378,0.174055567086987,0.9253606481347344,0.12589260131907526,0.14197741979873774,0.1576776070378457,-0.015973157665426858,-1.197755884233915,0.7640682854872313
1.410000000000001,0.15137725614257835,0.17547267279697085,0.9269208920472352,0.1254621942184408,0.14144398687026125,0.15438552095439212,-0.015993571131570235,-1.2002448238955479,0.7634440183795015
1.420000000000001,0.15262974659977638,0.1768844739416954,0.9284485599364031,0.12503523631600105,0.14091651462884505,0.15116210532648316,-0.016012550844114272,-1.2026707025523935,0.7627943163774404
1.430000000000001,0.1538779846047557,0.17829103000582106,0.9299443313655684,0.12461172198267922,0.14039497739803403,0.1480059378423037,-0.01603022504234235,-1.2050366159790997,0.7621234202933239
1.440000000000001,0.15512200454107378,0.17969240017995575,0.9314088718176605,0.12419163996901593,0.13987934213323686,0.14491562463371424,-0.016046712928947722,-1.2073454167113258,0.761435253204726
1.450000000000001,0.1563618406533954,0.1810886432896385,0.9328428329772287,0.12377497381016132,0.13936956895047004,0.141889799793175,-0.016062125054760568,-1.2095997268067034,0.7607334365356452
1.460000000000001,0.1575975269972808,0.18247981772948377,0.9342468530076369,0.12336170221104238,0.1388656116299269,0.13892712489179096,-0.016076563696836722,-1.211801950061513,0.760021305477202
1.470000000000001,0.15882909739272935,0.18386598140223956,0.9356215568234473,0.12295179941246055,0.13836741809528696,0.13602628849914292,-0.016090123228860945,-1.2139542837005133,0.7593019237676373
1.480000000000001,0.16005658538129192,0.18524719166252102,0.9369675563580138,0.12254523553885809,0.13787493086966263,0.13318600570550299,-0.01610289048301098,-1.2160587295573821,0.7585780978514491
1.490000000000001,0.16128002418657242,0.1866235052649903,0.9382854508263111,0.12214197692847385,0.13738808750906145,0.13040501764697573,-0.016114945102603164,-1.218117104763138,0.7578523904375672
1.500000000000001,0.16249944667794572,0.18799497831676237,0.9395758269830323,0.12174198644659116,0.1369068210142231,0.1276820910340501,-0.016126359884990393,-1.2201310519597837,0.7571271334763838
1.5100000000000011,0.16371488533732637,0.18936166623382447,0.9408392593759908,0.12134522378256148,0.13643106022166826,0.1250160176839971,-0.016137201114318087,-1.2221020490561985,0.7564044405753249
1.5200000000000011,0.16492637222882914,0.19072362370126553,0.9420763105948663,0.12095164573126864,0.13596073017477608,0.12240561405750165,-0.016147528883858307,-1.2240314185430703,0.7556862188724599
1.5300000000000011,0.16613393897116932,0.19208090463711994,0.9432875315153406,0.12056120645967922,0.1354957524756854,0.1198497207998737,-0.016157397407744224,-1.225920336383353,0.754974180387359
1.5400000000000011,0.16733761671265637,0.19343356215963756,0.9444734615386692,0.12017385775910457,0.13503604561879182,0.11734720228714446,-0.01616685532201211,-1.2277698404944175,0.7542698528681185
1.5500000000000012,0.16853743610864141,0.19478164855779992,0.9456346288267389,0.11978954928378138,0.13458152530659134,0.1148969461773167,-0.01617594597493328,-1.2295808388377012,0.7535745901531048
1.5600000000000012,0.16973342730128452,0.19612521526490956,0.9467715505326655,0.11940822877635746,0.1341321047485986,0.1124978629670049,-0.016184707706682056,-1.2313541171312858,0.7528895820655963
1.5700000000000012,0.17092561990151375,0.19746431283508695,0.9478847330269852,0.11902984228085033,0.13368769494404506,0.11014888555366949,-0.016193174118439336,-1.2330903462004366,0.7522158638590851
1.5800000000000012,0.1721140429730536,0.1987989909225161,0.9489746721194967,0.11865433434362727,0.13324820494904085,0.10784896880362212,-0.016201374331077135,-1.234790088980717,0.751554325230555
1.5900000000000012,0.1732987250184053,0.2001292982632869,0.9500418532768139,0.11828164820293612,0.13281354212886118,0.10559708912595166,-0.016209333233605183,-1.2364538071878814,0.7509057189186177
1.6000000000000012,0.1744796939666675,0.20145528265968865,0.9510867518356864,0.11791172596749774,0.13238361239599677,0.10339224405249792,-0.01621707172159352,-1.2380818676683119,0.750270668902907
1.6100000000000012,0.17565697716309026,0.20277699096681545,0.9521098332121517,0.11754450878465277,0.13195832043458613,0.10123345182397751,-0.016224606925808526,-1.2396745484433327,0.7496496782206716
1.6200000000000012,0.17683060136026021,0.20409446908135032,0.9531115531065795,0.11717993699853686,0.13153756991182589,0.09911975098234652,-0.016231952431319488,-1.2412320444603064,0.749043136416013
1.6300000000000012,0.17800059271081953,0.2054077619324008,0.9540923577046703,0.11681795029874173,0.13112126367693497,0.0970501999694665,-0.016239118487348624,-1.2427544730629858,0.7484513266367457
1.6400000000000012,0.17916697676162574,0.20671691347426413,0.9550526838744735,0.11645848785990132,0.13070930394822738,0.09502387673212341,-0.01624611220814637,-1.2442418791931467,0.7478744323933666
1.6500000000000012,0.18032977844926393,0.2080219666810062,0.9559929593594869,0.1161014884726262,0.13030159248882886,0.09303987833343429,-0.016252937765184685,-1.2456942403351199,0.7473125439941419
1.6600000000000013,0.18148902209682655,0.20932296354274268,0.9569136029679023,0.11574689066619277,0.1298980307715523,0.09109732057066239,-0.01625959657096213,-1.2471114712144185,0.7467656646698452
1.6700000000000013,0.18264473141188073,0.2106199450635172,0.9578150247580617,0.11539463282337759,0.12949852013342864,0.08919533759944918,-0.016266087454718716,-1.2484934282612268,0.746233716401209
1.6800000000000013,0.18379692948554607,0.21191295126067466,0.9586976262201874,0.11504465328781238,0.12910296192037024,0.0873330815644599,-0.016272406830357782,-1.2498399138491272,0.7457165454616839
1.6900000000000013,0.18494563879261014,0.2132020211656342,0.9595618004544513,0.11469689046421962,0.12871125762242636,0.08550972223642908,-0.01627854885687069,-1.251150680319046,0.7452139276876527
1.7000000000000013,0.18609088119261222,0.21448719282596915,0.9604079323454456,0.11435128291187423,0.12832330900007236,0.0837244466555841,-0.016284505591555358,-1.2524254337979932,0.7447255734877896
1.7100000000000013,0.18723267793182916,0.21576850330870712,0.9612363987331207,0.1140077694316231,0.12793901820195697,0.08197645878141505,-0.01629026713631646,-1.2536638378218141,0.7442511326028256
1.7200000000000013,0.18837104964610052,0.21704598870476638,0.9620475685802509,0.11366628914677997,0.1275582878745157,0.08026497914875262,-0.016295821777326833,-1.2548655167707894,0.743790198626552
1.7300000000000013,0.18950601636443337,0.21831968413444938,0.9628418031364935,0.11332678157820059,0.1271810212638418,0.0785892445301083,-0.01630115611832625,-1.2560300591265723,0.7433423132984743
1.7400000000000013,0.19063759751332993,0.21958962375391788,0.9636194560991022,0.11298918671382971,0.12680712231019095,0.07694850760422628,-0.01630625520782333,-1.2571570205585962,0.742906970578133
1.7500000000000013,0.19176581192178413,0.22085584076257778,0.9643808737703561,0.11265344507299982,0.12643649573548063,0.07534203663078942,-0.016311102660460396,-1.2582459268477568,0.7424836205107053
1.7600000000000013,0.19289067782689626,0.22211836741130536,0.9651263952117671,0.11231949776574897,0.12606904712413008,0.07376911513121874,-0.01631568077279081,-1.2592962766548519,0.7420716728931301
1.7700000000000014,0.1940122128800567,0.22337723501145001,0.9658563523951254,0.11198728654741409,0.12570468299757315,0.07222904157550002,-0.016319970633710993,-1.2603075441409357,0.7416705007496192
1.7800000000000014,0.19513043415365322,0.22463247394455182,0.9665710703504422,0.11165675386874498,0.12534331088276238,0.07072112907496848,-0.016323952229781804,-1.2612791814464546,0.7412794436250697
1.7900000000000014,0.1962453581482578,0.22588411367271538,0.9672708673108515,0.11132784292177329,0.1249848393749693,0.06924470508097894,-0.01632760454566211,-1.262210621035738,0.7408978107045465
1.8000000000000014,0.197357000800252,0.22713218274958438,0.967956054854526,0.11100049768166109,0.12462917819517336,0.06779911108938629,-0.01633090565987091,-1.2631012779131208,0.7405248837666558
1.8100000000000014,0.19846537748985157,0.2283767088318641,0.9686269380436673,0.11067466294474308,0.12427623824231952,0.06638370235075804,-0.016333832836084427,-1.2639505517167322,0.740159919978329
1.8200000000000014,0.1995705030494933,0.22961771869134198,0.969283815560627,0.11035028436296773,0.12392593164071285,0.06499784758623994,-0.016336362610165828,-1.2647578286956946,0.7398021545382126
1.8300000000000014,0.20067239177254906,0.23085523822735907,0.9699269798412137,0.11002730847493288,0.12357817178280656,0.06364092870899245,-0.016338470873117548,-1.2655224835762473,0.7394508031755631
1.8400000000000014,0.201771057422334,0.232089292479687,0.9705567172052418,0.10970568273370306,0.12323287336762946,0.06231234055111597,-0.016340132950137063,-1.2662438813220571,0.7391050645112565
1.8500000000000014,0.2028665132413776,0.2333199056417687,0.9711733079843776,0.10938535553158699,0.12288995243508785,0.0610114905959803,-0.016341323675949062,-1.2669213787937583,0.7387641222872497
1.8600000000000014,0.203958771960928,0.23454710107428237,0.9717770266473342,0.10906627622204595,0.12254932639636666,0.0597377987158739,-0.016342017466577975,-1.2675543263125202,0.7384271474705557
1.8700000000000014,0.20504784581066154,0.23577090131899084,0.9723681419224701,0.10874839513889567,0.12221091406064495,0.058490696914887334,-0.016342188387719066,-1.2681420691322616,0.7380933002375433
1.8800000000000014,0.20613374652857192,0.23699132811284052,0.9729469169178421,0.10843166361295709,0.1218746356583314,0.057269629076945196,-0.01634181021985782,-1.2686839488248924,0.7377617318441241
1.8900000000000015,0.20721648537101317,0.23820840240227603,0.9735136092387635,0.10811603398630418,0.12154041286101616,0.05607405071890023,-0.016340856520279074,-1.2691793045827926,0.7374315863871533
1.9000000000000015,0.2082960731228741,0.239422144357739,0.9740684711029194,0.10780145962425014,0.12120816879832694,0.05490342874860367,-0.01633930068210305,-1.269627474442533,0.7371020024621397
1.9100000000000015,0.20937252010786161,0.24063257338832036,0.9746117494530855,0.10748789492520656,0.12087782807186843,0.05375724122786552,-0.016337115990476207,-1.2700277964336801,0.7367721147221453
1.9200000000000015,0.2104458361988727,0.24183970815653835,0.9751436860675023,0.1071752953285441,0.12054931676641668,0.05263497714021916,-0.016334275676041062,-1.2703796096563367,0.7364410553425406
1.9300000000000015,0.21151603082843531,0.24304356659321544,0.9756645176679498,0.10686361732057692,0.12022256245853147,0.051536136163404786,-0.016330752965799604,-1.270682255290921,0.7361079553960886
1.9400000000000015,0.21258311299920055,0.24424416591242903,0.9761744760255702,0.10655281843878749,0.11989749422274297,0.050460228446486226,-0.016326521131483494,-1.2709350775435202,0.7357719461426273
1.9500000000000015,0.21364709129446835,0.24544152262651256,0.9766737880644846,0.10624285727440269,0.11957404263546156,0.04940677439151712,-0.016321553535535466,-1.2711374245300042,0.7354321602374412
1.9600000000000015,0.21470797388873147,0.2466356525610849,0.9771626759632497,0.10593369347342695,0.11925213977675261,0.048375304439672646,-0.016315823674802075,-1.2712886491019446,0.7350877328622358
1.9700000000000015,0.21576576855822233,0.24782657087008747,0.9776413572541963,0.10562528773623288,0.1189317192301117,0.04736535886176327,-0.016309305222034144,-1.271388109617247,0.7347378027824536
1.9800000000000015,0.216820482691449,0.24901429205080947,0.9781100449206959,0.10531760181580523,0.11861271608036936,0.04637648755304873,-0.016301972065284387,-1.2714351706582605,0.7343815133345117
1.9900000000000015,0.21787212329970723,0.25019882995888354,0.9785689474923955,0.10501059851472898,0.11829506690984817,0.04540824983227053,-0.016293798345289823,-1.2714292037000192,0.7340180133463827
2.0000000000000013,0.2189206970275566,0.25138019782323456,0.9790182691384648,0.10470424168100827,0.11797870979288956,0.044460214244822514,-0.01628475849091946,-1.2713695877311384,0.7336464579947898
2.010000000000001,0.21996621016324905,0.2525584082609661,0.9794582097588937,0.10439849620279829,0.1176635842888615,0.043531958369980105,-0.016274827252766348,-1.2712557098297779,0.7332660096021472
2.020000000000001,0.22100866864910002,0.2537334732921699,0.979888965073884,0.10409332800212834,0.11734963143375368,0.04262306863210948,-0.016263979734957745,-1.2710869656969657,0.7328758383762358
2.0300000000000007,0.22204807809179172,0.2549054043546444,0.9803107267113712,0.1037887040276902,0.1170367937304608,0.041733140115779416,-0.01625219142525487,-1.270862760149484,0.7324751230954725
2.0400000000000005,0.22308444377260017,0.2560742123185104,0.9807236822927177,0.10348459224676233,0.11672501513785041,0.040861776384699296,-0.016239438223508422,-1.2705825075744102,0.7320630517425077
2.0500000000000003,0.22411777065753724,0.257239907500711,0.9811280155166137,0.10318096163633672,0.11641424105870642,0.04000858930440789,-0.016225696468535295,-1.270245632347298,0.7316388220887646
2.06,0.2251480634074004,0.25840249967938644,0.9815239062412233,0.1028777821735119,0.1161044183266352,0.03917319886863891,-0.016210942963476447,-1.2698515692159262,0.7312016422324144
2.07,0.2261753263877229,0.25956199810811276,0.9819115305646132,0.1025750248252122,0.11579549519201694,0.038355233029290114,-0.01619515499969496,-1.2693997636514092,0.7307507310921753
2.0799999999999996,0.22719956367861796,0.26071841152999553,0.9822910609034977,0.10227266153729025,0.1154874213070803,0.03755432752992417,-0.01617831037927057,-1.268889672168418,0.7302853188592161
2.0899999999999994,0.22822077908451133,0.2618717481916105,0.9826626660703366,0.10197066522306679,0.11518014771017494,0.0367701257427305,-0.016160387436142135,-1.2683207626161535,0.7298046474093393
2.099999999999999,0.22923897614375638,0.2630220158567831,0.98302651134882,0.10166900975135891,0.11487362680931254,0.03600227850887861,-0.016141365055950305,-1.2676925144416566,0.7293079706775286
2.109999999999999,0.2302541581381273,0.2641692218201997,0.9833827585677732,0.10136766993404517,0.1145678123650429,0.0352504439821943,-0.016121222694628914,-1.267004418926949,0.7287945549968462
2.1199999999999988,0.23126632810218578,0.2653133729208451,0.9837315661735143,0.10106662151321322,0.11426265947272894,0.03451428747609164,-0.016099940395791257,-1.2662559794014439,0.7282636794035815
2.1299999999999986,0.23227548883251722,0.26645447555525975,0.9840730893006973,0.10076584114793351,0.1139581245442803,0.03379348131369477,-0.016077498806954894,-1.2654467114309875,0.7277146359104579
2.1399999999999983,0.2332816428968331,0.2675925356906117,0.9844074798416727,0.10046530640069966,0.11365416528940266,0.03308770468108446,-0.01605387919464976,-1.2645761429848343,0.7271467297496398
2.149999999999998,0.23428479264293603,0.26872755887757915,0.984734886514395,0.10016499572357433,0.11335074069641644,0.0323966434836057,-0.016029063458447897,-1.263643814581794,0.7265592795871837
2.159999999999998,0.23528494020754523,0.269859550263039,0.9850554549289093,0.09986488844407697,0.11304781101269588,0.031719990205173784,-0.016003034143956322,-1.262649279416735,0.7259516177105172
2.1699999999999977,0.2362820875249794,0.2709885146025581,0.9853693276524449,0.09956496475084778,0.11274533772477639,0.031057443770517452,-0.015975774454809473,-1.2615921034685664,0.725323090190448
2.1799999999999975,0.23727623633569558,0.2721144562726843,0.9856766442731458,0.09926520567912031,0.11244328353817575,0.03040870941029896,-0.01594726826369747,-1.2604718655907732,0.7246730570191469
2.1899999999999973,0.23826738819468168,0.2732373792830346,0.9859775414624674,0.09896559309603319,0.11214161235697193,0.029773498529051545,-0.015917500122465,-1.259288157585523,0.7240008922254699
2.199999999999997,0.23925554447970152,0.2743572872881771,0.9862721530362656,0.09866610968580967,0.11184028926317792,0.029151528575876585,-0.01588645527131496,-1.2580405842623252,0.7233059839689358
2.209999999999997,0.2402407063993911,0.2754741835993072,0.9865606100146067,0.09836673893483194,0.11153928049595162,0.028542522917843427,-0.015854119647148272,-1.256728763482155,0.7225877346135987
2.2199999999999966,0.24122287500120532,0.27658807119571416,0.9868430406803247,0.09806746511663553,0.11123855343067662,0.02794621071603594,-0.015820479891071368,-1.2553523261879347,0.7218455607830185
2.2299999999999964,0.24220205117921403,0.2776989527360385,0.9871195706363518,0.09776827327684762,0.11093807655794763,0.02736232680419119,-0.01578552335510077,-1.2539109164222098,0.7210788933974533
2.239999999999996,0.24317823568174768,0.2788068305693187,0.9873903228618485,0.0974691492180915,0.11063781946249204,0.02679061156987641,-0.015749238108093803,-1.2524041913328101,0.720287177694364
2.249999999999996,0.24415142911889157,0.279911706745827,0.9876554177671574,0.09717007948487805,0.11033775280205756,0.02623081083815169,-0.015711612940933657,-1.2508318211672695,0.7194698732332618
2.259999999999996,0.24512163196982928,0.28101358302769397,0.9879149732476062,0.09687105134850374,0.11003784828629357,0.025682675757666987,-0.015672637370995043,-1.2491934892567138,0.7186264538858784
2.2699999999999956,0.24608884459003505,0.282112460899322,0.9881691047361839,0.09657205279197333,0.10973807865565251,0.025145962689142348,-0.015632301645917168,-1.2474888919899094,0.7177564078126005
2.2799999999999954,0.24705306721831571,0.2832083415775882,0.9884179252551124,0.09627307249496439,0.10943841766033549,0.024620433096182212,-0.015590596746708676,-1.2457177387781286,0.7168592374260591
2.289999999999995,0.24801429998370236,0.2843012260218364,0.9886615454663393,0.09597409981884933,0.10913884003930505,0.02410585343837544,-0.015547514390208524,-1.2438797520114446,0.7159344593427247
2.299999999999995,0.2489725429121927,0.28539111494366076,0.9889000737209718,0.09567512479178973,0.10883932149938624,0.023601995066632565,-0.015503047030926326,-1.2419746670070548,0.7149816043233156
2.3099999999999947,0.24992779593334485,0.28647800881648,0.989133616107675,0.09537613809391668,0.10853983869447605,0.023108634120714715,-0.01545718786228583,-1.240002231950187,0.714000217202792
2.3199999999999945,0.2508800588867232,0.2875619078849047,0.9893622765000575,0.09507713104260966,0.10824036920487919,0.022625551428907632,-0.015409930817292165,-1.237962207828124,0.7129898568106662
2.3299999999999943,0.25182933152819786,0.28864281217389876,0.9895861566030624,0.0947780955778859,0.10794089151678779,0.022152532409796446,-0.015361270568644373,-1.235854368357847,0.7119500958823276
2.339999999999994,0.25277561353609834,0.28972072149773614,0.9898053559983877,0.09447902424791073,0.10764138500192048,0.021689366976097486,-0.015311202528316116,-1.2336784999077843,0.7108805209620445
2.349999999999994,0.2537189045172232,0.2907956354687553,0.990019972188955,0.09417991019463917,0.10734182989733561,0.02123584944050356,-0.015259722846620628,-1.231434401414117,0.7097807322982734
2.3599999999999937,0.2546592040127066,0.2918675535059122,0.9902301006424461,0.09388074713959768,0.10704220728543215,0.02079177842350135,-0.015206828410782256,-1.229121884292065,0.7086503437318736
2.3699999999999934,0.25559651150374374,0.2929364748431346,0.9904358348339277,0.09358152936981458,0.1067424990741506,0.020356956763119084,-0.015152516843032482,-1.2267407723425803,0.7074889825777944
2.3799999999999932,0.25653082641717595,0.2940023985374795,0.9906372662875831,0.09328225172390663,0.10644268797738536,0.01993119142656455,-0.015096786498248417,-1.2242909016548147,0.7062962895007783
2.389999999999993,0.2574621481309378,0.2950653234770953,0.9908344846175696,0.09298290957832886,0.10614275749561876,0.019514293423713674,-0.015039636461151794,-1.221772120504745,0.7050719183855912
2.399999999999993,0.2583904759793673,0.2961252483889921,0.9910275775680198,0.09268349883379381,0.10584269189678652,0.019106077722410856,-0.01498106654308523,-1.219184289250292,0.7038155362022603
2.4099999999999926,0.25931580925838144,0.2971821718466216,0.9912166310522048,0.09238401590186587,0.10554247619738298,0.0187063631655435,-0.014921077278382504,-1.2165272802232703,0.7025268228667891
2.4199999999999924,0.2602381472305182,0.2982360922772689,0.991401729190877,0.0920844576917358,0.10524209614381393,0.018314972389853138,-0.014859669920349464,-1.213800977618472,0.7012054710977808
2.429999999999992,0.26115748912984765,0.2992870079692597,0.9915829543498093,0.09178482159717993,0.10494153819400404,0.01793173174644712,-0.014796846436870563,-1.2110052773801825,0.6998511862693824
2.439999999999992,0.26207383416675323,0.30033491707898463,0.9917603871765479,0.091485105483708,0.10464078949926502,0.01755647122297519,-0.01473260950565689,-1.2081400870864079,0.6984636862609476
2.4499999999999917,0.2629871815325856,0.30137981763774324,0.9919341066363957,0.09118530767590317,0.10433983788643006,0.017189024367435964,-0.014666962509149123,-1.2052053258310695,0.6970427013037832
2.4599999999999915,0.263897530404191,0.30242170755841136,0.9921041900476403,0.09088542694495715,0.10403867184025938,0.016829228213578767,-0.014599909529091255,-1.2022009241044198,0.6955879738253287
2.4699999999999913,0.26480487994831564,0.3034605846419334,0.9922707131160452,0.09058546249640304,0.10373728048612099,0.01647692320786865,-0.014531455340787884,-1.199126823671907,0.6940992582911062
2.479999999999991,0.26570922932588875,0.30449644658364283,0.9924337499686178,0.09028541395804811,0.10343565357295037,0.016131953137980295,-0.014461605407059236,-1.1959829774517106,0.692576321044748
2.489999999999991,0.2666105776961856,0.3055292909794141,0.9925933731866698,0.08998528136810814,0.10313378145649202,0.0157941650627899,-0.014390365871906244,-1.1927693493911544,0.6910189401463984
2.4999999999999907,0.2675089242208734,0.306559115331648,0.9927496538381854,0.08968506516354482,0.10283165508282538,0.015463409243832956,-0.014317743553898858,-1.1894859143421905,0.6894269052097668
2.5099999999999905,0.2684042680679409,0.3075859170550936,0.9929026615095102,0.08938476616860722,0.10252926597217707,0.015139539078197527,-0.014243745939299795,-1.1861326579361375,0.6878000172380966
2.5199999999999902,0.26929660841551506,0.3086096934825103,0.9930524643363776,0.08908438558357795,0.10222660620302107,0.014822411032822957,-0.0141683811749357,-1.182709576457844,0.6861380884592958
2.52999999999999,0.2701859444555659,0.30963044187017186,0.9931991290342835,0.0887839249737247,0.10192366839646774,0.014511884580174082,-0.014091658060827282,-1.179216676719439,0.6844409421604594
2.53999999999999,0.27107227539750184,0.31064815940321583,0.993342720928226,0.08848338625845682,0.10162044570094245,0.014207822135262949,-0.014013586042588757,-1.1756539759338192,0.6827084125220033
2.5499999999999896,0.2719556004716579,0.31166284320084137,0.9934833039818203,0.08818277170068735,0.101316931777154,0.013910088993988962,-0.013934175203609045,-1.172021501588014,0.6809403444516148
2.5599999999999894,0.27283591893267817,0.31267449032135813,0.9936209408258055,0.08788208389639955,0.10101312078335278,0.013618553272770133,-0.013853436257023592,-1.1683192913165603,0.6791365934182098
2.569999999999989,0.2737132300627954,0.3136830977670891,0.9937556927859523,0.08758132576441775,0.10070900736087805,0.01333308584943848,-0.013771380537488095,-1.16454739277501,0.6772970252860786
2.579999999999989,0.27458753317500895,0.31468866248913047,0.9938876199103867,0.08728050053638138,0.10040458661999377,0.013053560305373036,-0.013688019992763987,-1.1607058635136847,0.6754215161493854
2.5899999999999888,0.2754588276161635,0.31569118139197117,0.9940167809963406,0.08697961174692126,0.10009985412601166,0.012779852868844154,-0.01360336717512467,-1.1567947708517867,0.6735099521671808
2.5999999999999885,0.2763271127699311,0.3166906513379753,0.994143233616343,0.08667866322403686,0.0997948058857003,0.012511842359544363,-0.013517435232591848,-1.15281419175196,0.6715622293990762
2.6099999999999883,0.27719238805969704,0.31768706915172973,0.9942670341438606,0.08637765907967314,0.0994894383339785,0.012249410134280096,-0.013430237900011435,-1.1487642126954019,0.6695782536417072
2.619999999999988,0.2780546529513533,0.3186804316242603,0.9943882377784026,0.08607660370049534,0.09918374832089108,0.011992440033800875,-0.013341789489977357,-1.144644929557596,0.667557940266123
2.629999999999988,0.27891390695600027,0.3196707355171191,0.994506898570098,0.08577550173886009,0.09887773309886508,0.0117408183307411,-0.013252104883611466,-1.1404564474847652,0.6655012140562145
2.6399999999999877,0.2797701496325594,0.32065797756634584,0.9946230694437592,0.08547435810398081,0.09857139031024381,0.011494433678651947,-0.013161199521208427,-1.1361988807710988,0.6634080090482897
2.6499999999999875,0.28062338059029845,0.3216421544863056,0.9947368022224402,0.0851731779532856,0.09826471797509657,0.011253177062100127,-0.01306908939275243,-1.1318723527368308,0.6612782683718981
2.6599999999999873,0.2814735994912709,0.32262326297340654,0.9948481476505014,0.08487196668396538,0.09795771447930099,0.01101694174781122,-0.012975791028314358,-1.127476995607225,0.6591119440919976
2.669999999999987,0.2823208060526723,0.3236012997096992,0.9949571554161911,0.08457072992471,0.0976503785628954,0.010785623236835464,-0.012881321488335654,-1.1230129503925297,0.6569089970525464
2.679999999999987,0.28316500004911477,0.32457626136636114,0.9950638741737535,0.08426947352763031,0.09734270930869815,0.010559119217715178,-0.012785698353806964,-1.1184803667689416,0.6546693967215981
2.6899999999999866,0.28400618131482136,0.325548144607069,0.9951683515650732,0.0839682035603634,0.09703470613119057,0.010337329520631799,-0.012688939716348038,-1.1138794029606363,0.6523931210379778
2.6999999999999864,0.28484434974574263,0.32651694609126036,0.9952706342408665,0.0836669262983588,0.09672636876566065,0.010120156072513396,-0.01259106416819603,-1.1092102256229002,0.6500801562595934
2.709999999999986,0.2856795053015969,0.3274826624772888,0.9953707678814278,0.083365648217343,0.09641769725760362,0.009907502853081052,-0.012492090792107773,-1.1044730097264042,0.6477304968134491
2.719999999999986,0.28651164800783613,0.328445290425474,0.9954687972169414,0.08306437598595974,0.09610869195237629,0.009699275851815473,-0.012392039151182383,-1.0996679384426444,0.64534414514741
2.7299999999999858,0.28734077795753893,0.3294048266010495,0.995564766047368,0.08276311645858322,0.09579935348510145,0.009495383025824216,-0.012290929278610427,-1.0947952030305945,0.6429211115837659
2.7399999999999856,0.28816689531323264,0.33036126767701113,0.9956587172619132,0.08246187666830186,0.09548968277081862,0.009295734258590403,-0.012188781667356173,-1.089855002724582,0.640461414174639
2.7499999999999853,0.28899000030864597,0.33131461033686765,0.9957506928580889,0.08216066382006945,0.09517968099487747,0.009100241319584932,-0.012085617259777791,-1.0848475446234143,0.6379650785592682
2.759999999999985,0.28981009325039425,0.3322648512772971,0.9958407339603743,0.08185948528402122,0.09486934960357013,0.008908817824723721,-0.0119814574371901,-1.0797730435807782,0.6354321378232088
2.769999999999985,0.29062717451959824,0.33321198721071005,0.995928880838486,0.08155834858895188,0.0945586902949985,0.008721379197652415,-0.011876324009375968,-1.0746317220969195,0.6328626323594666
2.7799999999999847,0.29144124457343895,0.33415601486772323,0.9960151729252648,0.08125726141595273,0.09424770501017268,0.008537842631841321,-0.011770239204051553,-1.0694238102116287,0.6302566097316005
2.7899999999999845,0.2922523039466493,0.33509693099954485,0.9960996488341881,0.08095623159220515,0.09393639592433664,0.008358127053473241,-0.011663225656290157,-1.0641495453985301,0.6276141245388066
2.7999999999999843,0.29306035325294466,0.33603473238027465,0.996182346376514,0.08065526708492736,0.09362476543851704,0.008182153085108062,-0.01155530639790901,-1.0588091724606943,0.6249352382830036
2.809999999999984,0.2938653931863935,0.33696941580912015,0.9962633025780666,0.08035437599547182,0.09331281617129132,0.008009843010107468,-0.011446504846823575,-1.05340294342757,0.6222200192379307
2.819999999999984,0.2946674245227298,0.33790097811253217,0.9963425536956692,0.08005356655357015,0.09300055095077106,0.007841120737804179,-0.0113368447963738,-1.047931117453244,0.6194685423202684
2.8299999999999836,0.29546644812060874,0.3388294161462607,0.9964201352332325,0.07975284711172284,0.09268797280679644,0.007675911769399619,-0.011226350404627078,-1.0423939607160277,0.6166808889627869
2.8399999999999834,0.2962624649228067,0.33975472679733415,0.9964960819575059,0.07945222613973073,0.09237508496333799,0.007514143164575387,-0.011115046183660587,-1.0367917463193725,0.6138571469895296
2.849999999999983,0.2970554759573677,0.34067690698596337,0.9965704279134981,0.07915171221936552,0.09206189083110142,0.007355743508803106,-0.01100295698882817,-1.0311247541941095,0.6109974104930278
2.859999999999983,0.29784548233869684,0.3415959536673729,0.996643206439574,0.07885131403917635,0.09174839400033159,0.007200642881338216,-0.010890108008014697,-1.025393271002006,0.608101779713545
2.869999999999983,0.2986324852686027,0.34251186383356125,0.9967144501822355,0.0785510403894295,0.09143459823381161,0.007048772823883378,-0.0107765247508823,-1.0195975900406424,0.6051703609203513
2.8799999999999826,0.29941648603728965,0.34342463451499194,0.9967841911105916,0.07825090015717863,0.09112050746005303,0.006900066309907511,-0.01066223303811221,-1.0137380111495946,0.602203266295016
2.8899999999999824,0.30019748602430163,0.3443342627822176,0.9968524605305255,0.07795090232146236,0.09080612576667314,0.006754457714606501,-0.010547258990643812,-1.0078148406179108,0.5992006138167125
2.899999999999982,0.30097548669941854,0.3452407457474386,0.9969192890985638,0.0776510559486268,0.09049145739395546,0.0066118827854926695,-0.010431629018915891,-1.0018283910928822,0.5961625271495251
2.909999999999982,0.30175048962350626,0.3461440805659982,0.9969847068354555,0.07735137018776986,0.09017650672858939,0.006472278613599193,-0.010315369812113277,-0.9957789814900865,0.5930891355317426
2.9199999999999817,0.30252249644932194,0.3470442644378161,0.9970487431394655,0.07705185426630484,0.08986127829758521,0.006335583605287051,-0.010198508327420149,-0.9896669369046992,0.5899805736671279
2.9299999999999815,0.3032915089222754,0.3479412946087619,0.9971114267993888,0.07675251748564049,0.08954577676236047,0.006201737454641665,-0.010081071779284754,-0.9834925885240575,0.586836981618144
2.9399999999999813,0.30405752888114795,0.3488351683719702,0.9971727860072928,0.07645336921697476,0.08923000691299399,0.006070681116447184,-0.009963087628698136,-0.9772562735414563,0.5836585047011242
2.949999999999981,0.30482055825876964,0.34972588306909935,0.9972328483709906,0.07615441889719969,0.08891397366264349,0.005942356779726001,-0.009844583572488326,-0.9709583350711739,0.5804452933833621
2.959999999999981,0.30558059908265617,0.3506134360915348,0.997291640926254,0.07585567602491472,0.08859768204212339,0.005816707841831832,-0.009725587532634111,-0.9645991220646981,0.5771975031821066
2.9699999999999807,0.30633765347560643,0.35149782488153913,0.997349190148769,0.07555715015654584,0.08828113719463868,0.0056936788830845445,-0.009606127645599781,-0.9581789892281446,0.5739152945654379
2.9799999999999804,0.3070917236562618,0.3523790469333505,0.9974055219658408,0.07525885090256802,0.08796434437067145,0.0055732156419361295,-0.00948623225169471,-0.9516982969408483,0.570598832855003
2.9899999999999802,0.30784281193962804,0.3532570997942302,0.997460661767853,0.07496078792382835,0.0876473089230163,0.005455264990655593,-0.009365929884458462,-0.9451574111751114,0.5672482881305893
2.99999999999998,0.30859092073756106,0.3541319810654617,0.9975146344194865,0.07466297092796736,0.08733003630196101,0.005339774911522949,-0.0092452492600753,-0.9385567034170808,0.5638638351365067
3.00999999999998,0.3093360525592173,0.3550036884033019,0.9975674642707023,0.07436540966593623,0.08701253205060909,0.005226694473520997,-0.009124219266818515,-0.931896550588752,0.5604456531897658
3.0199999999999796,0.3100782100114699,0.3558722195198866,0.9976191751674939,0.07406811392860715,0.08669480180034042,0.005115973809514761,-0.00900286895452877,-0.9251773349710666,0.5569939260900114
3.0299999999999794,0.310817395799291,0.3567375721840912,0.9976697904624139,0.07377109354347482,0.08637685126640682,0.005007564093908558,-0.008881227524127105,-0.9183994441280912,0.5535088420311963
3.039999999999979,0.3115536127261022,0.35759974422234747,0.9977193330248798,0.07347435837144639,0.08605868624365898,0.0049014175207700746,-0.008759324317165541,-0.9115632708322514,0.5499905935149644
3.049999999999979,0.3122868636940927,0.3584587335194193,0.9977678252512628,0.07317791830371786,0.0857403126024014,0.004797487282412411,-0.008637188805416656,-0.9046692129906119,0.5464393772657178
